City_ID,City,Lat,Lng,Max Temp,Humidity,Cloudiness,Wind Speed,Country,Date
0,port-aux-francais,-49.35,70.2167,274.25,75,80,13.93,TF,1724458825
1,katsuura,35.1333,140.3,301.13,80,88,6.26,JP,1724458392
2,kanchanaburi,14.6333,99.1,298.43,94,99,1.43,TH,1724458826
3,bilibino,68.0546,166.4372,278.21,73,100,1.0,RU,1724458243
4,pontes e lacerda,-15.2261,-59.3353,301.59,33,6,2.23,BR,1724458409
5,jiangzi,28.95,89.6333,278.15,68,48,2.02,CN,1724458827
6,kasamwa,-2.85,32.4333,295.96,43,74,3.32,TZ,1724458828
7,port saint john's,-31.6229,29.5448,288.53,77,64,6.93,ZA,1724458233
8,bethel,41.3712,-73.414,294.0,78,0,2.06,US,1724458828
9,vadso,70.0744,29.7487,287.24,77,75,2.06,NO,1724458266
10,gisborne,-38.6533,178.0042,287.08,81,100,2.7,NZ,1724458829
11,mersing,2.4312,103.8405,297.1,94,20,2.06,MY,1724458829
12,lihue,21.9789,-159.3672,301.92,72,100,7.2,US,1724458830
13,haiku-pauwela,20.9219,-156.3051,301.21,77,40,11.83,US,1724458260
14,jamestown,42.097,-79.2353,291.95,68,0,2.57,US,1724458821
15,whitehorse,60.7161,-135.0538,286.1,58,95,1.28,CA,1724458232
16,socorro,31.6546,-106.3033,311.71,14,40,3.09,US,1724458831
17,margaret river,-33.95,115.0667,285.26,76,99,12.8,AU,1724458831
18,menaka,15.9182,2.4022,303.99,52,55,4.01,ML,1724458832
19,san patricio,28.017,-97.5169,305.12,54,80,6.65,US,1724458832
20,laguna,38.421,-121.4238,296.23,52,75,5.14,US,1724458282
21,kavaratti,10.5669,72.642,299.44,86,100,6.04,IN,1724458282
22,avarua,-21.2078,-159.775,298.18,69,75,5.66,CK,1724458272
23,iskateley,67.6803,53.1512,284.88,85,17,3.95,RU,1724458314
24,zacharo,37.4833,21.65,299.87,57,23,2.0,GR,1724458834
25,college,64.8569,-147.8028,283.75,85,100,4.12,US,1724458834
26,nookat,40.2671,72.6207,292.55,36,38,3.57,KG,1724458835
27,yellowknife,62.456,-114.3525,288.44,95,75,4.02,CA,1724458835
28,pisco,-13.7,-76.2167,289.18,82,20,5.66,PE,1724458350
29,adamstown,-25.066,-130.1015,292.05,67,96,5.81,PN,1724458836
30,san felipe,10.3399,-68.7425,296.62,88,100,1.06,VE,1724458836
31,puerto natales,-51.7236,-72.4875,276.88,95,96,1.53,CL,1724458836
32,flying fish cove,-10.4217,105.6791,297.97,88,100,5.66,CX,1724458837
33,bredasdorp,-34.5322,20.0403,283.02,94,0,2.96,ZA,1724458837
34,limassol,34.675,33.0333,302.14,83,0,1.54,CY,1724458837
35,enewetak,11.3474,162.3373,302.31,76,83,7.57,MH,1724458266
36,anadyr,64.75,177.4833,280.93,87,100,3.58,RU,1724458259
37,port alfred,-33.5906,26.891,294.06,40,76,6.29,ZA,1724458285
38,ziro,27.6333,93.8333,289.83,98,45,0.63,IN,1724458839
39,ushuaia,-54.8,-68.3,280.96,66,40,5.14,AR,1724458576
40,nemuro,43.3236,145.575,294.38,91,40,8.35,JP,1724458170
41,grytviken,-54.2811,-36.5092,270.79,85,20,3.91,GS,1724458840
42,wailua homesteads,22.0669,-159.378,301.59,75,100,7.2,US,1724458261
43,blackmans bay,-43.0167,147.3167,283.56,94,100,0.89,AU,1724458841
44,huarmey,-10.0681,-78.1522,290.23,82,74,4.21,PE,1724458841
45,puerto carreno,6.189,-67.4859,299.3,84,100,3.43,CO,1724458842
46,san-pedro,4.7485,-6.6363,296.76,90,100,4.02,CI,1724458842
47,tyrone,33.4712,-84.5972,298.92,61,0,0.89,US,1724458842
48,waitangi,-43.9535,-176.5597,285.83,90,100,4.92,NZ,1724458843
49,jiwani,25.05,61.7417,299.97,83,75,1.93,PK,1724458844
50,gillette,44.2911,-105.5022,304.83,22,0,8.49,US,1724458844
51,tazovsky,67.4667,78.7,283.16,90,97,2.78,RU,1724458844
52,flin flon,54.7682,-101.865,295.97,38,14,1.98,CA,1724458845
53,rapid city,44.0805,-103.231,306.09,33,0,10.28,US,1724458801
54,fenoarivo be,-18.4333,46.5667,286.93,69,0,3.21,MG,1724458845
55,puerto baquerizo moreno,-0.9,-89.6,292.71,79,67,5.61,EC,1724458808
56,guarapari,-20.6667,-40.4975,295.73,79,0,7.24,BR,1724458846
57,bima,-8.4667,118.7167,299.94,72,55,2.64,ID,1724458847
58,namibe,-15.1961,12.1522,291.48,85,8,3.22,AO,1724458367
59,wulingyuan,29.3494,110.5441,299.44,77,3,1.05,CN,1724458847
60,bogo,11.0517,124.0055,302.25,72,72,2.17,PH,1724458848
61,santo augusto,-27.8508,-53.7772,282.76,90,94,4.46,BR,1724458848
62,palikir - national government center,6.9248,158.1611,303.56,79,100,3.09,FM,1724458848
63,pacific grove,36.6177,-121.9166,292.97,79,0,2.57,US,1724458390
64,sao joao dos inhamuns,-6.0,-40.2833,298.98,45,36,6.35,BR,1724458849
65,orsk,51.2049,58.5668,283.65,93,0,4.0,RU,1724458849
66,saint-philippe,-21.3585,55.7679,294.05,57,2,5.16,RE,1724458850
67,dzuunharaa,48.8523,106.4579,285.96,83,1,1.2,MN,1724458850
68,keflavik,64.0049,-22.5624,281.39,76,75,8.75,IS,1724458850
69,tura,25.5198,90.2201,296.49,96,41,2.15,IN,1724458288
70,alofi,-19.0595,-169.9187,298.09,78,75,8.23,NU,1724458320
71,pirallahi,40.4723,50.333,299.23,76,0,8.74,AZ,1724458852
72,hobe sound,27.0595,-80.1364,300.92,87,49,6.28,US,1724458852
73,rio grande,-32.035,-52.0986,283.22,82,88,4.53,BR,1724458352
74,birjand,32.8663,59.2211,288.41,21,0,2.06,IR,1724458853
75,krasnogorskoye,52.2953,86.1979,289.36,68,90,1.73,RU,1724458853
76,atamanovka,51.93,113.63,287.39,90,100,2.37,RU,1724458853
77,klyuchi,52.2667,79.1667,288.39,79,1,3.66,RU,1724458854
78,thompson,55.7435,-97.8558,293.24,68,40,1.54,CA,1724458854
79,georgiyevka,43.0369,74.7114,289.17,82,0,0.0,KZ,1724458854
80,iqaluit,63.7506,-68.5145,283.0,93,100,1.03,CA,1724458855
81,smithers,54.7804,-127.1743,294.98,37,98,2.87,CA,1724458855
82,egilsstadir,65.2653,-14.3948,280.1,87,100,4.12,IS,1724458856
83,albany,42.6001,-73.9662,294.03,80,72,1.83,US,1724458628
84,port isabel,26.0734,-97.2086,305.38,69,0,7.2,US,1724458473
85,udangudi,8.4333,78.0167,299.46,79,100,7.81,IN,1724458857
86,borogontsy,62.6683,131.1683,292.62,57,44,1.83,RU,1724458857
87,mejit,10.2753,170.8646,301.34,79,49,8.07,MH,1724458345
88,la jolla,32.8473,-117.2742,299.9,66,0,4.12,US,1724458778
89,hawaiian paradise park,19.5933,-154.9731,301.33,83,100,5.66,US,1724458858
90,sao jose da coroa grande,-8.8978,-35.1478,296.8,83,33,5.62,BR,1724458859
91,galle,6.0367,80.217,300.89,85,100,1.65,LK,1724458859
92,lebu,-37.6167,-73.65,280.51,80,27,0.97,CL,1724458302
93,cabo san lucas,22.8909,-109.9124,305.24,68,0,4.63,MX,1724458203
94,edinburgh of the seven seas,-37.0676,-12.3116,285.52,80,75,10.35,SH,1724458860
95,olonkinbyen,70.9221,-8.7187,278.95,96,95,1.0,SJ,1724458346
96,vorgashor,67.5833,63.95,279.79,92,88,2.97,RU,1724458268
97,poronaysk,49.2167,143.1167,292.13,72,94,6.1,RU,1724458861
98,saipan,15.1355,145.701,304.54,74,75,4.12,MP,1724458862
99,severo-yeniseyskiy,60.3725,93.0408,283.41,90,30,0.99,RU,1724458862
100,eastham,41.8301,-69.9739,295.36,70,0,2.06,US,1724458862
101,kashgar,39.4547,75.9797,294.71,49,0,4.0,CN,1724458863
102,kiruna,67.8557,20.2251,285.66,94,100,4.12,SE,1724458863
103,corinto,37.9407,22.9573,299.2,42,0,1.16,GR,1724458864
104,saldanha,-33.0117,17.9442,286.9,84,73,8.58,ZA,1724458284
105,west island,-12.1568,96.8225,299.14,78,75,5.14,CC,1724458295
106,spring creek,40.7266,-115.5859,295.27,17,31,3.58,US,1724458865
107,zaragoza,41.6561,-0.8773,300.4,61,0,4.63,ES,1724458650
108,castillos,-34.1667,-53.8333,281.18,65,79,5.01,UY,1724458866
109,invercargill,-46.4,168.35,285.38,57,17,5.36,NZ,1724458866
110,watertown,42.3709,-71.1828,296.24,61,0,0.0,US,1724458866
111,kawambwa,-9.7915,29.0791,290.52,44,0,5.39,ZM,1724458753
112,tongliao,43.6125,122.2653,296.61,72,74,3.53,CN,1724458867
113,barcelos,41.5388,-8.6151,290.35,96,20,0.9,PT,1724458735
114,longyearbyen,78.2186,15.6401,280.81,85,100,2.68,SJ,1724458868
115,dudinka,69.4058,86.1778,282.27,87,84,2.7,RU,1724458292
116,hobyo,5.3505,48.5268,298.06,85,82,9.65,SO,1724458388
117,nagqu,31.5,92.0,276.47,85,97,1.95,CN,1724458389
118,hermanus,-34.4187,19.2345,286.88,77,2,7.13,ZA,1724458869
119,xianju,28.85,120.7333,302.91,76,50,0.55,CN,1724458870
120,qaisumah,28.3112,46.1273,307.13,40,0,3.6,SA,1724458325
121,georgetown,5.4112,100.3354,299.11,93,20,1.03,MY,1724458610
122,hamilton,39.1834,-84.5333,299.77,53,0,0.0,US,1724458871
123,shubarkuduk,49.1447,56.4872,288.52,69,0,3.18,KZ,1724458871
124,fale old settlement,-9.3852,-171.2468,300.68,78,61,8.31,TK,1724458373
125,batticaloa,7.7102,81.6924,299.0,81,98,2.13,LK,1724458773
126,kone,-21.0595,164.8658,297.84,52,64,2.14,NC,1724458872
127,correia pinto,-27.5847,-50.3611,281.18,99,82,0.76,BR,1724458873
128,udachny,66.4167,112.4,289.18,82,100,3.95,RU,1724458873
129,emerald,-23.5333,148.1667,295.56,62,11,3.61,AU,1724458873
130,east london,-33.0153,27.9116,292.03,47,69,7.29,ZA,1724458874
131,lubbock,33.6001,-101.8338,312.29,14,20,8.23,US,1724458874
132,port-vila,-17.7338,168.3219,298.93,69,40,4.63,VU,1724458875
133,bodo,67.28,14.405,288.17,89,75,7.2,NO,1724458301
134,bikenibeu village,1.3673,173.1241,304.13,66,20,4.12,KI,1724458875
135,dunedin,-45.8742,170.5036,288.04,46,12,3.58,NZ,1724458876
136,khash,28.2211,61.2158,296.29,15,0,1.21,IR,1724458876
137,sao joao da barra,-21.6403,-41.0511,296.2,85,1,13.42,BR,1724458876
138,mount gambier,-37.8333,140.7667,289.29,73,46,4.7,AU,1724458877
139,zliten,32.4674,14.5687,300.02,72,8,2.21,LY,1724458877
140,gizo,-8.103,156.8419,300.96,77,99,7.73,SB,1724458878
141,kailua-kona,19.6406,-155.9956,303.13,81,40,5.14,US,1724458317
142,zhigalovo,54.8097,105.1578,286.81,88,20,0.85,RU,1724458878
143,ambodifotatra,-16.9833,49.85,295.32,80,6,6.36,MG,1724458879
144,johi,26.6921,67.6133,306.31,62,2,3.51,PK,1724458879
145,hithadhoo,-0.6,73.0833,301.39,74,28,2.28,MV,1724458880
146,westport,41.1415,-73.3579,295.82,73,3,3.58,US,1724458606
147,songea,-10.6833,35.65,289.22,59,90,2.55,TZ,1724458880
148,port mathurin,-19.6833,63.4167,296.21,88,100,4.59,MU,1724458881
149,happy valley-goose bay,53.3168,-60.3315,292.32,68,75,4.63,CA,1724458881
150,talnakh,69.4865,88.3972,282.22,92,52,2.63,RU,1724458881
151,isafjordur,66.0755,-23.124,276.35,95,100,8.02,IS,1724458882
152,poyang,28.9924,116.6675,301.91,82,2,2.03,CN,1724458882
153,awjilah,29.1081,21.2869,303.01,54,0,5.37,LY,1724458403
154,fortuna,40.5982,-124.1573,288.66,93,75,5.14,US,1724458884
155,lompoc,34.6391,-120.4579,295.11,64,0,7.2,US,1724458293
156,estancia,-11.2683,-37.4383,293.83,91,0,1.27,BR,1724458739
157,kodiak,57.79,-152.4072,285.88,76,100,2.06,US,1724458885
158,bubaque,11.2833,-15.8333,300.18,86,78,5.64,GW,1724458885
159,afif,23.9065,42.9172,307.02,19,100,1.82,SA,1724458886
160,taro,-8.3862,115.28,293.38,92,81,1.4,ID,1724458887
161,fort-shevchenko,44.5086,50.263,296.47,57,16,6.78,KZ,1724458887
162,kaiyuan,23.6977,103.3037,294.42,92,89,1.31,CN,1724458887
163,prince rupert,54.3161,-130.3201,287.2,89,100,3.09,CA,1724458888
164,sinabang,2.4803,96.3801,297.57,90,100,2.07,ID,1724458403
165,carnarvon,-24.8667,113.6333,294.04,63,19,7.94,AU,1724458242
166,ginir,7.1333,40.7,288.21,78,97,4.72,ET,1724458889
167,saint-zotique,45.2501,-74.2492,291.18,82,8,1.03,CA,1724458889
168,xining,36.6167,101.7667,291.12,80,97,0.62,CN,1724458355
169,ust'-ilimsk,58.0006,102.6619,286.63,88,8,1.9,RU,1724458890
170,port elizabeth,-33.918,25.5701,291.31,52,0,1.03,ZA,1724458890
171,tahe,52.3333,124.7333,292.44,59,100,1.56,CN,1724458891
172,sisimiut,66.9395,-53.6735,279.92,89,100,0.96,GL,1724458891
173,tulum,20.2167,-87.4667,300.94,81,10,2.58,MX,1724458891
174,kapuskasing,49.4169,-82.4331,293.2,73,75,4.12,CA,1724458892
175,tlahualilo de zaragoza,26.1167,-103.45,307.47,14,33,7.78,MX,1724458892
176,porto novo,6.4965,2.6036,297.32,90,100,3.83,BJ,1724458893
177,pindushi,62.9152,34.58,284.89,87,6,3.93,RU,1724458893
178,arkhangel'sk,64.5401,40.5433,289.21,82,0,2.0,RU,1724458412
179,buala,-8.145,159.5921,301.22,71,100,4.75,SB,1724458894
180,mawlamyinegyunn,16.3833,95.2667,298.78,91,100,1.99,MM,1724458895
181,vanimo,-2.6741,141.3028,301.77,70,93,1.94,PG,1724458895
182,khandyga,62.6667,135.6,290.46,76,15,0.67,RU,1724458896
183,ilulissat,69.2167,-51.1,279.16,100,100,1.03,GL,1724458896
184,alice springs,-23.7,133.8833,302.9,26,1,7.2,AU,1724458897
185,nogliki,51.8333,143.1667,285.82,95,100,9.4,RU,1724458897
186,utrik,11.2278,169.8474,301.71,74,47,8.87,MH,1724458897
187,taber,49.8167,-112.1518,301.15,34,16,5.14,CA,1724458898
188,tosontsengel,48.7567,98.2839,284.3,49,35,1.05,MN,1724458898
189,ribeira grande,38.5167,-28.7,299.14,86,13,1.34,PT,1724458898
190,northam,51.0333,-4.2167,287.38,91,100,6.28,GB,1724458899
191,takoradi,4.8845,-1.7554,296.82,92,100,5.54,GH,1724458899
192,polyarnyy,69.1989,33.4478,288.1,91,33,4.67,RU,1724458900
193,mount isa,-20.7333,139.5,300.02,28,63,4.12,AU,1724458311
194,tsiombe,-25.3,45.4833,288.52,60,31,4.25,MG,1724458900
195,mukalla,14.5425,49.1242,301.47,69,6,1.35,YE,1724458901
196,brookings,44.3114,-96.7984,299.36,78,0,4.63,US,1724458646
197,saudarkrokur,65.7461,-19.6394,277.23,99,100,5.96,IS,1724458902
198,birstein,50.35,9.3,288.91,96,82,2.07,DE,1724458902
199,tyukhtet,56.5389,89.3011,286.73,79,79,3.79,RU,1724458902
200,chuguyevka,44.1653,133.8633,292.87,89,66,0.61,RU,1724458903
201,krasnohrad,49.3814,35.4402,292.88,53,59,3.85,UA,1724458903
202,aljezur,37.3191,-8.8033,291.28,98,37,4.04,PT,1724458904
203,puerto ayora,-0.7393,-90.3518,292.9,93,50,4.47,EC,1724458904
204,puquio,-14.7,-74.1333,281.9,25,5,0.74,PE,1724458904
205,yaren,-0.5472,166.916,301.95,66,44,4.91,NR,1724458905
206,raahe,64.6833,24.4833,288.19,87,68,5.85,FI,1724458905
207,ilagan,17.1485,121.8892,300.4,86,96,1.21,PH,1724458905
208,acarau,-2.8856,-40.12,298.55,75,54,7.76,BR,1724458906
209,srandakan,-7.9386,110.2506,296.32,79,65,1.88,ID,1724458906
210,ebon,4.582,168.6964,302.08,73,98,3.41,MH,1724458907
211,novobod,39.0108,70.1508,288.94,35,20,0.53,TJ,1724458907
212,bagaha,27.1,84.0833,298.38,92,54,3.59,IN,1724458908
213,taiobeiras,-15.8078,-42.2331,291.37,55,1,2.09,BR,1724458775
214,isiro,2.7739,27.616,291.89,93,20,0.31,CD,1724458909
215,cabedelo,-6.9811,-34.8339,298.52,83,48,5.58,BR,1724458327
216,pangody,65.85,74.4859,282.28,95,100,2.12,RU,1724458330
217,touros,-5.1989,-35.4608,297.2,82,10,5.41,BR,1724458910
218,payakumbuh,-0.2202,100.6308,294.51,95,99,1.27,ID,1724458910
219,ballinasloe,53.3275,-8.2194,282.38,96,82,3.68,IE,1724458911
220,atkaracalar,40.8159,33.0756,287.8,97,5,2.17,TR,1724458911
221,tongren,27.7172,109.1853,299.93,82,0,1.39,CN,1724458911
222,constantia,44.1833,28.65,295.76,74,4,2.52,RO,1724458322
223,labytnangi,66.6572,66.4183,280.94,91,72,0.53,RU,1724458912
224,gadzhiyevo,69.2551,33.3362,288.39,90,41,4.3,RU,1724458913
225,hadibu,12.65,54.0333,298.76,82,100,7.02,YE,1724458401
226,slave lake,55.2834,-114.769,296.14,53,0,3.6,CA,1724458913
227,sao francisco,-15.9486,-44.8644,298.18,35,42,2.26,BR,1724458914
228,harper,4.375,-7.7169,297.54,85,97,5.59,LR,1724458914
229,papao,-17.75,-149.55,299.97,77,100,11.53,PF,1724458914
230,ugoofaaru,5.6667,73.0,300.57,78,100,3.86,MV,1724458915
231,chibougamau,49.9168,-74.3659,293.94,52,0,1.54,CA,1724458915
232,st. john's,47.5649,-52.7093,290.36,92,100,7.2,CA,1724458144
233,badger,64.8,-147.5333,284.29,84,100,6.17,US,1724458916
234,praia da vitoria,38.7333,-27.0667,298.57,100,75,5.3,PT,1724458346
235,aberdeen,57.1437,-2.0981,285.42,82,40,5.14,GB,1724458917
236,krasnyy chikoy,50.3643,108.7512,286.95,82,8,2.09,RU,1724458917
237,floro,61.5996,5.0328,286.13,76,40,8.23,NO,1724458917
238,corner brook,48.9667,-57.9484,288.65,92,44,2.3,CA,1724458918
239,songkhla,6.8333,100.6667,295.87,97,100,1.17,TH,1724458918
240,bom jardim,-7.7958,-35.5872,291.91,95,31,1.21,BR,1724458918
241,bakanas,44.8081,76.2772,296.37,35,22,1.98,KZ,1724458919
242,yuzhno-kurilsk,44.0306,145.8556,297.74,80,27,4.62,RU,1724458919
243,aripuana,-9.1667,-60.6333,302.72,32,38,1.06,BR,1724458381
244,nantucket,41.2835,-70.0995,292.21,77,0,3.6,US,1724458894
245,greenville,35.6127,-77.3663,295.12,70,0,1.54,US,1724458635
246,severnoye,56.3491,78.3619,285.31,93,50,3.81,RU,1724458921
247,mugia,43.1041,-9.2179,293.66,92,67,6.71,ES,1724458351
248,machico,32.7,-16.7667,297.5,69,20,2.06,PT,1724458922
249,walvis bay,-22.9575,14.5053,287.53,81,70,3.83,NA,1724458922
250,grootfontein,-19.5667,18.1167,288.88,18,0,1.21,NA,1724458923
251,selkirk,50.1436,-96.8845,299.92,65,0,0.89,CA,1724458678
252,hola,51.5377,23.1902,289.48,61,100,2.87,PL,1724458924
253,lamar,33.6668,-95.5836,306.1,55,0,7.72,US,1724458924
254,xiuyan,40.2928,123.2744,296.85,84,41,0.32,CN,1724458924
255,sitka,57.0531,-135.33,287.09,88,100,2.57,US,1724458925
256,ketchikan,55.3422,-131.6461,288.02,76,100,1.33,US,1724458925
257,freetown,8.484,-13.2299,298.99,89,75,7.2,SL,1724458339
258,jacmel,18.2342,-72.5347,301.12,83,96,1.33,HT,1724458926
259,miramichi,47.0043,-65.4654,288.25,81,54,2.77,CA,1724458926
260,illizi,26.4833,8.4667,304.9,29,0,3.72,DZ,1724458927
261,tiksi,71.6872,128.8694,279.71,87,81,0.51,RU,1724458927
262,ancud,-41.8697,-73.8203,279.76,85,51,2.63,CL,1724458928
263,talara,-4.5772,-81.2719,293.57,83,0,6.69,PE,1724458411
264,birni n konni,13.7956,5.2553,298.68,74,74,4.29,NE,1724458928
265,swellendam,-34.0226,20.4417,285.79,60,0,3.03,ZA,1724458929
266,ust-nera,64.5667,143.2,291.73,50,100,2.61,RU,1724458929
267,mandalgovi,45.7625,106.2708,288.0,60,1,4.37,MN,1724458929
268,kudahuvadhoo,2.6708,72.8944,301.01,69,98,0.46,MV,1724458672
269,kristiansund,63.1115,7.732,285.51,82,75,8.23,NO,1724458930
270,stanley,54.868,-1.6985,285.53,80,0,5.14,GB,1724458931
271,bom sucesso,-21.0331,-44.7581,294.72,36,1,2.72,BR,1724458932
272,atbasar,51.8,68.3333,285.33,91,96,5.25,KZ,1724458352
273,fort st. john,56.2499,-120.8529,295.09,40,75,0.0,CA,1724458369
274,cromer,52.9312,1.2989,289.34,64,89,4.48,GB,1724458933
275,la tuque,47.4334,-72.7824,293.29,77,82,1.54,CA,1724458933
276,tralee,52.2704,-9.7026,283.64,94,54,3.26,IE,1724458933
277,bemidji,47.4736,-94.8803,299.2,71,75,3.09,US,1724458680
278,pubal,37.2917,127.5078,300.6,89,20,1.03,KR,1724458934
279,tartu,58.3806,26.7251,289.44,83,75,3.6,EE,1724458935
280,tarawa,1.419,172.984,304.2,66,20,4.12,KI,1724458935
281,mohr,54.3528,9.7167,286.23,89,96,3.09,DE,1724458935
282,tommot,58.9564,126.2925,290.27,67,78,1.74,RU,1724458936
283,dawesville,30.9224,-84.0091,300.57,70,40,4.12,US,1724458936
284,opuwo,-18.0607,13.84,290.44,20,4,1.45,NA,1724458937
285,kati,12.7441,-8.0726,295.82,94,100,1.82,ML,1724458937
286,argo,37.6333,22.7333,300.28,34,0,1.89,GR,1724458937
287,atafu village,-8.5421,-172.5159,300.63,79,100,8.51,TK,1724458938
288,bisbee,31.4482,-109.9284,300.54,51,53,3.58,US,1724458938
289,sabha,27.0377,14.4283,304.28,41,0,7.08,LY,1724458939
290,gustavsberg,59.3268,18.3898,291.09,71,54,8.53,SE,1724458939
291,la passe,45.5549,-0.8967,292.21,93,4,2.42,FR,1724458939
292,qaqortoq,60.7167,-46.0333,277.84,93,45,1.87,GL,1724458884
293,guano,-1.5833,-78.6333,282.34,89,23,2.53,EC,1724458721
294,tarakan,3.3,117.6333,299.87,94,40,1.03,ID,1724458940
295,peace river,56.2501,-117.286,301.32,26,75,5.66,CA,1724458941
296,aasiaat,68.7098,-52.8699,276.6,99,100,2.96,GL,1724458941
297,uturoa,-16.7333,-151.4333,298.75,78,93,9.41,PF,1724458343
298,gualeguaychu,-33.0094,-58.5172,280.34,69,100,3.13,AR,1724458724
299,weno,7.4515,151.8468,301.84,72,93,3.01,FM,1724458943
300,magadan,59.5667,150.8,288.75,57,100,4.75,RU,1724458943
301,punta cana,18.5818,-68.4043,302.02,84,20,3.09,DO,1724458733
302,berezovyy,51.6667,135.7,291.11,68,62,0.13,RU,1724458944
303,eraan,9.0629,117.7016,300.33,85,100,1.18,PH,1724458944
304,portland,45.5234,-122.6762,292.23,75,75,1.79,US,1724458827
305,manthani,18.65,79.6667,298.31,91,100,2.82,IN,1724458945
306,al wakrah,24.85,51.3333,307.2,67,3,2.34,QA,1724458945
307,bonga,7.2833,36.2333,288.54,99,100,0.47,ET,1724458946
308,sol'tsy,58.1239,30.3238,286.24,97,100,3.83,RU,1724458948
309,banda aceh,5.5577,95.3222,298.63,85,94,4.52,ID,1724458948
310,chernyshkovskiy,48.4219,42.2308,296.75,30,85,5.25,RU,1724458949
311,vilyuchinsk,52.9306,158.4028,285.3,97,100,11.04,RU,1724458949
312,kapa'a,22.0752,-159.319,302.33,73,100,7.2,US,1724458950
313,mersa matruh,31.3525,27.2453,300.03,71,0,3.98,EG,1724458950
314,road town,18.4167,-64.6167,301.23,72,7,8.53,VG,1724458950
315,robore,-18.3333,-59.75,292.51,65,20,1.17,BO,1724458951
316,petropavlovsk-kamchatsky,53.0452,158.6483,284.48,94,100,8.0,RU,1724458951
317,la ronge,55.1001,-105.2842,296.29,40,0,3.6,CA,1724458398
318,san antonio de pale,-1.4014,5.6325,296.32,83,90,5.76,GQ,1724458952
319,punta arenas,-53.15,-70.9167,280.21,76,0,6.17,CL,1724458922
320,coquimbo,-29.9533,-71.3436,285.0,67,0,2.06,CL,1724458882
321,tolanaro,-25.0319,46.9987,292.19,59,75,5.14,MG,1724458953
322,richards bay,-28.783,32.0377,290.31,67,8,7.42,ZA,1724458922
323,praya,14.9215,-23.5087,300.31,83,33,2.67,CV,1724458954
324,rongelap,11.1635,166.8941,301.79,80,88,8.9,MH,1724458955
325,bardai,11.65,7.2333,292.91,96,85,3.39,NG,1724458955
326,susuman,62.7833,148.1667,290.13,41,13,0.78,RU,1724458955
327,liezen,47.5667,14.2333,290.09,90,1,1.99,AT,1724458956
328,jalai nur,49.45,117.7,289.56,88,100,6.9,CN,1724458956
329,broome,42.2506,-75.833,292.97,67,60,0.45,US,1724458956
330,iron river,46.0927,-88.6423,294.97,67,84,3.49,US,1724458957
331,ola,59.5833,151.2833,289.42,53,99,5.62,RU,1724458957
332,souillac,-20.5167,57.5167,293.36,88,40,2.57,MU,1724458958
333,papatowai,-46.5619,169.4708,283.65,59,36,6.94,NZ,1724458958
334,hasaki,35.7333,140.8333,300.92,79,96,7.07,JP,1724458958
335,la'ie,21.6477,-157.9253,301.81,75,16,4.02,US,1724458959
336,luderitz,-26.6481,15.1594,286.3,83,63,1.49,NA,1724458959
337,lillehammer,61.1146,10.4674,280.82,95,68,1.74,NO,1724458960
338,luau,-10.7073,22.2247,292.61,30,0,2.81,AO,1724458960
339,nova vicosa,-17.8919,-39.3719,296.86,77,1,5.35,BR,1724458960
340,las khorey,11.1595,48.1967,303.9,55,88,3.59,SO,1724458961
341,east end,34.5507,-92.341,306.07,59,40,1.84,US,1724458961
342,antsiranana,-12.2787,49.2917,295.54,72,2,4.17,MG,1724458961
343,kegen,43.0197,79.2203,283.14,78,9,2.29,KZ,1724458962
344,madimba,-10.4,40.3333,295.19,82,0,4.73,TZ,1724458962
345,miyaly,48.8844,53.7836,291.14,54,1,3.57,KZ,1724458962
346,lata,40.1629,-8.3327,289.6,97,42,1.11,PT,1724458963
347,wanning,18.8003,110.3967,301.03,82,99,3.17,CN,1724458963
348,song cau,13.45,109.2167,299.34,74,100,1.82,VN,1724458964
349,katsuren-haebaru,26.3369,127.8719,302.16,89,75,2.57,JP,1724458711
350,mhangura,-16.8939,30.1683,286.68,70,2,3.2,ZW,1724458964
351,plettenberg bay,-34.0527,23.3716,291.01,51,2,4.69,ZA,1724458965
352,parkent,41.2944,69.6764,295.31,31,74,2.02,UZ,1724458965
353,bireun,5.203,96.7009,297.49,77,92,2.31,ID,1724458966
354,ingeniero jacobacci,-41.3427,-69.5448,275.35,64,67,3.49,AR,1724458966
355,khovd,48.0056,91.6419,291.33,29,100,1.12,MN,1724458966
356,mil'kovo,55.6078,37.7956,288.9,69,79,2.71,RU,1724458967
357,manokwari,-0.8667,134.0833,300.09,75,100,1.22,ID,1724458967
358,eyl,7.9803,49.8164,298.42,75,86,7.4,SO,1724458967
359,prabumulih,-3.45,104.25,296.23,84,98,1.94,ID,1724458968
360,aleksin,54.51,37.08,287.33,92,54,2.37,RU,1724458968
361,nanning,22.8167,108.3167,300.4,90,100,1.05,CN,1724458737
362,potosi,-19.5836,-65.7531,281.68,7,72,2.56,BO,1724458969
363,howrah,22.5892,88.3103,299.15,94,100,1.54,IN,1724458969
364,ntungamo,-0.8833,29.65,292.42,87,81,0.97,UG,1724458969
365,san pedro pochutla,15.7333,-96.4667,302.99,77,100,1.98,MX,1724458970
366,al fuwayliq,26.4432,43.2534,305.37,17,47,3.96,SA,1724458970
367,choibalsan,48.0667,114.5,289.86,77,1,5.17,MN,1724458970
368,mata-utu,-13.2816,-176.1745,299.83,73,89,9.54,WF,1724458970
369,mizan teferi,6.9833,35.5833,288.75,93,99,0.99,ET,1724458971
370,santa marta,11.2408,-74.199,302.53,77,75,5.14,CO,1724458870
371,ust'-barguzin,53.45,108.9833,285.94,93,84,3.46,RU,1724458971
372,puerto santa,-8.9906,-78.6456,289.95,84,58,5.46,PE,1724458972
373,kirakira,-10.4544,161.9205,301.37,71,100,7.4,SB,1724458972
374,independence,39.0911,-94.4155,300.59,57,0,4.12,US,1724458876
375,jincheng,35.5022,112.8328,299.55,73,0,1.19,CN,1724458973
376,afaahiti,-17.75,-149.2833,296.85,76,100,10.65,PF,1724458973
377,al bawiti,28.3492,28.8659,300.63,51,0,3.36,EG,1724458973
378,el abiodh sidi cheikh,32.893,0.5484,297.45,40,85,1.21,DZ,1724458974
379,remire-montjoly,4.9167,-52.2667,300.17,89,0,2.57,GF,1724458974
380,lucheng,31.2336,117.2806,303.43,73,0,1.74,CN,1724458974
381,karratha,-20.7377,116.8463,295.42,62,3,5.51,AU,1724458975
382,itambacuri,-18.0311,-41.685,294.91,64,1,3.76,BR,1724458975
383,burang,30.25,81.1667,280.04,95,99,2.31,CN,1724458975
384,afonso claudio,-20.0742,-41.1239,292.8,68,0,1.42,BR,1724458976
385,pionerskiy,54.9508,20.2275,291.06,70,63,8.26,RU,1724458976
386,port douglas,-16.4833,145.4667,296.39,83,99,4.79,AU,1724458976
387,sao felix do xingu,-6.6447,-51.995,300.99,34,11,1.01,BR,1724458977
388,boqueirao,-7.5,-36.1333,292.28,88,21,2.99,BR,1724458977
389,howard springs,-12.497,131.047,302.52,67,9,3.59,AU,1724458978
390,bathsheba,13.2167,-59.5167,301.49,83,20,5.66,BB,1724458978
391,hami,42.8,93.45,302.28,16,47,2.77,CN,1724458978
392,rundu,-17.9333,19.7667,288.26,23,0,2.45,NA,1724458978
393,forde,61.4522,5.8572,283.21,100,100,1.03,NO,1724458979
394,head of westport,41.6209,-71.062,295.2,73,20,3.09,US,1724458979
395,tharangambadi,11.0319,79.8528,300.7,79,99,7.8,IN,1724458979
396,puerto aysen,-45.4,-72.7,277.28,97,99,1.44,CL,1724458980
397,crane,31.3974,-102.3501,311.28,19,7,9.25,US,1724458980
398,calvinia,-31.4707,19.776,283.61,57,0,2.88,ZA,1724458980
399,kangundo,-1.2979,37.3471,286.6,79,90,1.95,KE,1724458981
400,kruisfontein,-34.0033,24.7314,293.24,15,41,4.57,ZA,1724458725
401,port augusta,-32.5,137.7667,295.11,40,2,1.52,AU,1724458981
402,midvagur,62.0511,-7.1939,282.61,87,100,4.63,FO,1724458982
403,sinan,34.8262,126.1086,297.48,90,0,1.25,KR,1724458982
404,doctor arroyo,23.6667,-100.1833,297.92,45,79,4.27,MX,1724458982
405,mount pearl,47.5166,-52.7813,289.9,93,100,7.2,CA,1724458983
406,cutral-co,-38.9469,-69.2089,277.54,10,77,0.45,AR,1724458708
407,pahrump,36.2083,-115.9839,307.18,7,0,7.15,US,1724458741
408,ulladulla,-35.35,150.4667,293.14,51,82,3.07,AU,1724458984
409,east ballina,-28.8667,153.5833,292.91,68,2,1.91,AU,1724458984
410,moanda,-1.5575,13.2178,294.27,82,60,1.03,GA,1724458984
411,vientiane,17.9667,102.6,298.12,78,75,1.03,LA,1724458985
412,inhambane,-23.865,35.3833,290.2,65,12,3.12,MZ,1724458985
413,newman,37.3138,-121.0208,296.5,49,99,1.79,US,1724458985
414,nizhnesortymskiy,62.4397,71.7603,283.36,85,100,6.07,RU,1724458986
415,zouerate,22.7187,-12.4521,302.66,23,4,8.36,MR,1724458986
416,santa cruz,-17.8,-63.1667,290.85,72,75,2.57,BO,1724458739
417,colonia,50.9333,6.95,294.51,79,75,4.12,DE,1724458987
418,morehead city,34.7229,-76.726,297.18,78,0,4.02,US,1724458987
419,zhanjiang,21.2815,110.3427,300.52,85,87,1.98,CN,1724458987
420,kittila,67.6647,24.8936,283.23,93,0,1.03,FI,1724458988
421,aykol,38.1751,77.2132,293.7,52,2,1.83,CN,1724458988
422,copala,16.65,-98.9833,300.92,75,67,2.5,MX,1724458989
423,general pico,-35.6566,-63.7568,279.83,83,93,2.91,AR,1724458921
424,musafir-khana,26.3667,81.8,298.9,89,80,4.82,IN,1724458989
425,timmins,48.4669,-81.3331,294.05,64,75,0.0,CA,1724458940
426,tromso,69.6496,18.957,286.16,88,75,2.06,NO,1724458990
427,vila franca do campo,37.7167,-25.4333,298.38,93,16,1.86,PT,1724458990
428,heyuan,23.7333,114.6833,300.42,83,58,0.67,CN,1724458991
429,majitha,31.7583,74.9544,301.09,89,40,2.57,IN,1724458991
430,juneau,58.3019,-134.4197,289.15,63,75,4.63,US,1724458991
431,wewak,-3.5534,143.6268,300.58,76,100,3.21,PG,1724458992
432,kasempa,-13.4584,25.8338,288.57,44,8,3.58,ZM,1724458992
433,puerto colombia,10.9878,-74.9547,301.2,79,100,2.18,CO,1724458992
434,kimbe,-5.5502,150.1429,303.69,61,88,3.39,PG,1724458992
435,tangalle,6.024,80.7911,298.21,89,100,3.06,LK,1724458993
436,pasuquin,18.3328,120.6177,302.12,79,75,1.03,PH,1724458993
437,porto murtinho,-21.6989,-57.8825,291.87,62,72,4.47,BR,1724458714
438,mitu,1.1983,-70.1733,297.2,88,97,0.86,CO,1724458994
439,apt,43.8833,5.4,293.83,66,0,2.91,FR,1724458994
440,ostroh,50.3294,26.5143,288.11,48,86,2.77,UA,1724458994
441,beloyarskiy,63.7119,66.6722,282.69,94,59,1.91,RU,1724458995
442,medina,24.4686,39.6142,307.39,29,40,2.06,SA,1724458706
443,arraial do cabo,-22.9661,-42.0278,296.14,86,0,13.82,BR,1724458995
444,kingston,17.997,-76.7936,303.68,74,20,5.14,JM,1724458816
445,dawei,14.0833,98.2,299.18,88,100,0.47,MM,1724458996
446,falkenberg,56.9055,12.4912,287.73,85,70,9.29,SE,1724458996
447,ribeira brava,32.65,-17.0667,297.5,72,0,0.5,PT,1724458996
448,camacupa,-12.0167,17.4833,288.16,25,10,1.77,AO,1724458997
449,kunwi,36.2347,128.5728,302.17,67,0,1.08,KR,1724458997
450,chake chake,-5.2459,39.7666,296.34,81,27,4.33,TZ,1724458997
451,kansanshi,-12.0951,26.4273,287.57,50,2,3.01,ZM,1724458998
452,san jorge,-31.8962,-61.8598,281.87,47,100,3.58,AR,1724458998
453,camana,-16.6228,-72.7111,288.78,86,66,3.73,PE,1724458998
454,shajiang,26.7825,119.9669,300.99,84,74,0.13,CN,1724458998
455,kenai,60.5544,-151.2583,288.79,68,0,7.2,US,1724458999
456,likisa,-8.6695,125.6875,295.6,63,83,2.18,TL,1724458999
457,ottawa,45.4112,-75.6981,295.3,74,75,2.57,CA,1724458481
458,bridgewater,44.3835,-64.5155,290.97,79,9,3.09,CA,1724458836
459,xunchang,28.4543,104.715,299.69,79,3,0.98,CN,1724459000
460,chonchi,-42.6128,-73.8092,278.77,96,69,1.27,CL,1724459000
461,eufaula,31.8913,-85.1455,301.45,54,0,3.09,US,1724459001
462,jaciara,-15.9653,-54.9683,301.78,24,1,1.61,BR,1724459001
463,olinda,-8.0089,-34.8553,299.0,73,75,5.14,BR,1724459001
464,puerto el triunfo,13.2833,-88.55,301.28,79,35,4.09,SV,1724459002
465,aykhal,66.0,111.5,287.68,90,100,2.94,RU,1724459002
466,dolinsk,47.35,142.8,292.22,71,79,6.82,RU,1724459002
467,quellon,-43.1167,-73.6167,279.44,88,82,1.64,CL,1724459003
468,horta,38.5333,-28.6333,298.72,86,34,1.34,PT,1724459003
469,nuuk,64.1835,-51.7216,279.49,100,100,2.06,GL,1724459003
470,usinsk,65.9939,57.5281,284.42,78,100,3.59,RU,1724459004
471,puerto armuelles,8.2833,-82.8667,299.87,75,58,0.45,PA,1724459004
472,pasighat,28.0667,95.3333,298.54,96,79,0.31,IN,1724459004
473,cedeira,43.6797,-8.0209,292.5,96,4,6.13,ES,1724459004
474,hirara,24.8,125.2833,303.07,89,75,1.54,JP,1724459005
475,tauranga,-37.6861,176.1667,289.0,92,100,2.89,NZ,1724459005
476,port lincoln,-34.7333,135.8667,289.62,68,0,4.82,AU,1724459005
477,nuevitas,21.5453,-77.2644,300.95,88,28,4.97,CU,1724459006
478,playa del ingles,27.7567,-15.5787,297.01,77,0,3.57,ES,1724458989
479,gokarna,14.55,74.3167,299.68,86,100,6.65,IN,1724459006
480,nuku'alofa,-21.1333,-175.2,297.34,83,75,7.2,TO,1724459007
481,ubari,26.5921,12.7805,304.1,39,0,5.15,LY,1724459007
482,qujing,25.4833,103.7833,290.28,91,8,0.22,CN,1724459008
483,altai,46.3722,96.2583,288.21,39,100,1.65,MN,1724459008
484,ambovombe,-25.1667,46.0833,288.79,60,47,4.98,MG,1724459008
485,copalillo,18.0333,-99.1167,297.45,89,89,1.89,MX,1724459009
486,fort bragg,35.139,-79.006,296.06,62,0,2.57,US,1724459009
487,ust-tsilma,65.441,52.1498,284.09,87,20,1.37,RU,1724459010
488,jennings,38.7192,-90.2604,303.2,60,0,2.06,US,1724459010
489,necochea,-38.5473,-58.7368,278.59,87,7,4.13,AR,1724458764
490,igualada,41.581,1.6172,297.25,86,65,0.89,ES,1724459010
491,nago,26.5881,127.9761,301.98,83,99,4.45,JP,1724459011
492,troitskoye,52.9821,84.6757,290.27,73,65,2.84,RU,1724459011
493,kaa-khem,51.6833,94.7333,290.49,42,10,1.81,RU,1724459011
494,island harbour,50.724,-1.2758,289.25,77,93,0.89,GB,1724459012
495,puerto francisco de orellana,-0.4667,-76.9667,300.63,70,68,0.97,EC,1724459012
496,port hedland,-20.3167,118.5667,296.18,83,0,3.6,AU,1724459013
497,holualoa,19.6228,-155.9522,301.06,83,40,5.14,US,1724459013
498,orcutt,34.8653,-120.436,294.6,66,0,7.72,US,1724459013
499,ha'il,27.5219,41.6907,306.16,21,0,3.09,SA,1724459014
500,merizo village,13.2658,144.6691,304.81,74,90,3.59,GU,1724459014
501,turiacu,-1.6633,-45.3717,297.68,74,86,2.72,BR,1724459014
502,port macquarie,-31.4333,152.9167,293.19,72,51,1.79,AU,1724459015
503,vuktyl,63.8567,57.3094,284.46,77,100,1.21,RU,1724459015
504,jianshui,23.6363,102.8264,292.99,96,94,1.63,CN,1724459015
505,sakaiminato,35.55,133.2333,306.14,58,75,1.03,JP,1724459016
506,puerto escondido,15.85,-97.0667,303.61,94,40,2.57,MX,1724459016
507,labin,45.095,14.1197,295.89,70,4,2.78,HR,1724459016
508,likiep,9.8251,169.3107,301.71,80,54,7.95,MH,1724459016
509,broken hill,-31.95,141.4333,295.2,39,61,3.48,AU,1724459017
510,waingapu,-9.6567,120.2641,300.52,63,18,5.23,ID,1724459017
511,conception bay south,47.4999,-52.9981,290.23,93,100,4.53,CA,1724459017
512,santo antonio do ica,-3.1022,-67.9397,301.43,62,53,1.37,BR,1724459018
513,tefe,-3.3542,-64.7114,302.21,74,0,0.0,BR,1724459018
514,tazacorte,28.629,-17.9293,296.69,85,75,6.17,ES,1724459019
515,shetpe,44.1667,52.1167,294.5,34,26,4.79,KZ,1724459019
516,santa elena de uairen,4.6167,-61.1333,293.23,86,97,1.11,VE,1724459019
517,cambridge,43.3601,-80.3127,294.36,60,75,4.12,CA,1724458882
518,motueka,-41.1333,173.0167,288.76,52,21,1.99,NZ,1724459020
519,maumere,-8.6199,122.2111,299.75,73,65,3.01,ID,1724459020
520,benguela,-12.5763,13.4055,292.86,90,77,1.38,AO,1724459021
521,huinca renanco,-34.8404,-64.3758,281.65,54,85,4.61,AR,1724459021
522,salinopolis,-0.6136,-47.3561,300.07,75,49,6.64,BR,1724459021
523,leava,-14.3,-178.1667,299.63,77,39,10.09,WF,1724459022
524,mili,6.0815,171.735,302.21,73,81,3.36,MH,1724459022
525,kerikeri,-35.2268,173.9474,288.0,73,100,1.43,NZ,1724459022
526,hilo,19.7297,-155.09,301.45,83,100,5.66,US,1724459022
527,masterton,-40.9597,175.6575,287.29,71,100,4.25,NZ,1724459023
528,nova sintra,14.8667,-24.7167,300.3,81,14,4.88,CV,1724459023
529,shadegan,30.6497,48.6647,308.95,40,0,3.03,IR,1724459023
530,forbes,-33.3833,148.0167,292.78,56,52,9.37,AU,1724459024
531,hongseong,36.6009,126.665,301.21,80,0,2.44,KR,1724459024
532,goure,13.9835,10.2704,300.77,61,29,2.59,NE,1724459024
533,gilgit,35.9221,74.3087,295.2,43,1,0.93,PK,1724459025
534,callao,-12.0667,-77.15,289.66,88,100,3.6,PE,1724459025
535,tabou,4.423,-7.3528,297.32,87,100,4.7,CI,1724459025
536,salavan,15.7167,106.4167,297.39,92,83,1.12,LA,1724459026
537,mogadishu,2.0371,45.3438,297.85,88,74,8.69,SO,1724458759
538,san fernando,15.0286,120.6898,301.0,81,99,1.03,PH,1724459026
539,arvayheer,46.2639,102.775,287.02,59,25,1.01,MN,1724459026
540,berdigestyakh,62.0989,126.6992,293.03,56,19,2.3,RU,1724459027
541,serhiyivka,46.0272,30.3768,295.21,43,44,5.29,UA,1724459027
542,codrington,-38.2667,141.9667,289.11,74,39,6.76,AU,1724459027
543,san carlos,9.6612,-68.5827,297.99,90,37,1.13,VE,1724459028
544,arish,31.1316,33.7984,299.21,75,0,2.44,EG,1724459028
545,rabigh,22.7986,39.0349,306.69,49,100,1.59,SA,1724459029
546,talakan,50.3167,130.3667,293.26,63,3,1.57,RU,1724459029
547,manga,11.6636,-1.0731,295.79,95,98,2.08,BF,1724459029
548,novodvinsk,64.4165,40.8122,288.01,91,37,2.1,RU,1724459030
549,giado,31.9582,12.0203,295.95,84,0,1.82,LY,1724459030
550,dundaga,57.5167,22.35,290.75,71,83,5.05,LV,1724459030
551,grand falls-windsor,48.9332,-55.6649,289.54,93,99,2.55,CA,1724458873
552,cidreira,-30.1811,-50.2056,284.54,76,94,4.7,BR,1724459031
553,antofagasta,-23.65,-70.4,286.75,66,0,3.19,CL,1724458922
554,piti village,13.4626,144.6933,304.99,72,20,3.6,GU,1724459031
555,samsun,41.25,36.3333,298.57,78,40,8.23,TR,1724459032
556,lincoln,40.8,-96.667,301.1,57,75,5.66,US,1724458819
557,chazuta,-6.5742,-76.1367,299.96,62,77,0.28,PE,1724459032
558,usogorsk,63.4106,48.6872,283.84,87,21,2.06,RU,1724459033
559,bam,29.106,58.357,303.26,10,0,3.31,IR,1724459033
560,san jose del guaviare,2.5729,-72.6459,297.4,89,90,1.43,CO,1724459033
561,fuente del maestre,38.5266,-6.4478,297.8,29,0,1.22,ES,1724459034
562,nar'yan-mar,67.6713,53.087,284.94,85,17,3.91,RU,1724459034
563,equeurdreville-hainneville,49.6487,-1.6531,288.89,94,100,2.57,FR,1724459034
564,patan,27.6667,85.3333,294.36,100,40,0.0,NP,1724459034
565,miyako,39.6367,141.9525,304.03,62,17,1.29,JP,1724459035
